$GPRMC,212028.387,V,0510.972,N,15121.069,E,43.7,12.58,270515,,E*6D
$GPGGA,212029.387,0510.972,N,15121.069,E,0,00,,,M,,M,,*44
$GPGLL,0510.972,N,15121.069,E,212030.387,V*2C
$GPRMC,212031.387,V,1738.088,N,03530.518,W,24.4,16.75,270515,,E*7B
$GPGGA,212032.387,1738.088,N,03530.518,W,0,00,,,M,,M,,*59
$GPGLL,1738.088,N,03530.518,W,212033.387,V*38
$GPRMC,212034.387,V,8541.297,N,06715.107,W,17.8,17.21,270515,,E*71
$GPGGA,212035.387,8541.297,N,06715.107,W,0,00,,,M,,M,,*5D
$GPGLL,8541.297,N,06715.107,W,212036.387,V*3E
$GPRMC,212037.387,V,6521.270,N,11700.747,E,71.6,23.46,270515,,E*69
$GPGGA,212038.387,6521.270,N,11700.747,E,0,00,,,M,,M,,*43
$GPGLL,6521.270,N,11700.747,E,212039.387,V*22
$GPRMC,212040.387,V,5028.463,N,10001.942,E,71.1,1.82,270515,,E*51
$GPGGA,212041.387,5028.463,N,10001.942,E,0,00,,,M,,M,,*4A
$GPGLL,5028.463,N,10001.942,E,212042.387,V*29
$GPRMC,212043.387,V,6456.832,S,15525.593,W,2.7,6.26,270515,,E*66
$GPGGA,212044.387,6456.832,S,15525.593,W,0,00,,,M,,M,,*40
$GPGLL,6456.832,S,15525.593,W,212045.387,V*21
$GPRMC,212046.387,V,5002.143,N,14100.478,W,93.5,38.46,270515,,E*70
$GPGGA,212047.387,5002.143,N,14100.478,W,0,00,,,M,,M,,*51
$GPGLL,5002.143,N,14100.478,W,212048.387,V*3E
$GPRMC,212049.387,V,5724.387,S,06240.122,E,34.0,10.02,270515,,E*75
$GPGGA,212050.387,5724.387,S,06240.122,E,0,00,,,M,,M,,*5F
$GPGLL,5724.387,S,06240.122,E,212051.387,V*3E
$GPRMC,212052.387,V,3115.987,S,15350.535,E,64.1,39.69,270515,,E*75
$GPGGA,212053.387,3115.987,S,15350.535,E,0,00,,,M,,M,,*54
$GPGLL,3115.987,S,15350.535,E,212054.387,V*33
$GPRMC,212055.387,V,5936.117,N,05033.377,E,49.2,34.54,270515,,E*69
$GPGGA,212056.387,5936.117,N,05033.377,E,0,00,,,M,,M,,*45
$GPGLL,5936.117,N,05033.377,E,212057.387,V*24
$GPRMC,212058.387,V,7632.534,S,16253.569,W,75.8,35.98,270515,,E*6C
$GPGGA,212059.387,7632.534,S,16253.569,W,0,00,,,M,,M,,*46
$GPGLL,7632.534,S,16253.569,W,212100.387,V*2B
$GPRMC,212101.387,V,0939.369,N,05435.538,E,72.5,4.03,270515,,E*59
$GPGGA,212102.387,0939.369,N,05435.538,E,0,00,,,M,,M,,*4B
$GPGLL,0939.369,N,05435.538,E,212103.387,V*2A
$GPRMC,212104.387,V,7057.351,N,12707.792,E,20.9,10.06,270515,,E*6C
$GPGGA,212105.387,7057.351,N,12707.792,E,0,00,,,M,,M,,*47
$GPGLL,7057.351,N,12707.792,E,212106.387,V*24
$GPRMC,212107.387,V,8100.467,S,14217.273,W,40.2,22.53,270515,,E*6A
$GPGGA,212108.387,8100.467,S,14217.273,W,0,00,,,M,,M,,*43
$GPGLL,8100.467,S,14217.273,W,212109.387,V*22
$GPRMC,212110.387,V,6252.637,N,07307.298,W,1.5,5.78,270515,,E*75
$GPGGA,212111.387,6252.637,N,07307.298,W,0,00,,,M,,M,,*5C
$GPGLL,6252.637,N,07307.298,W,212112.387,V*3F
$GPRMC,212113.387,V,7320.308,N,17148.258,E,18.1,23.47,270515,,E*68
$GPGGA,212114.387,7320.308,N,17148.258,E,0,00,,,M,,M,,*43
$GPGLL,7320.308,N,17148.258,E,212115.387,V*22
$GPRMC,212116.387,V,8558.039,S,17113.630,E,57.9,44.43,270515,,E*75
$GPGGA,212117.387,8558.039,S,17113.630,E,0,00,,,M,,M,,*5E
$GPGLL,8558.039,S,17113.630,E,212118.387,V*31
$GPRMC,212119.387,V,7442.033,S,17735.550,W,33.5,32.01,270515,,E*69
$GPGGA,212120.387,7442.033,S,17735.550,W,0,00,,,M,,M,,*40
$GPGLL,7442.033,S,17735.550,W,212121.387,V*21
$GPRMC,212122.387,V,4736.881,S,07032.556,W,54.4,36.16,270515,,E*66
$GPGGA,212123.387,4736.881,S,07032.556,W,0,00,,,M,,M,,*46
$GPGLL,4736.881,S,07032.556,W,212124.387,V*21
$GPRMC,212125.387,V,5448.437,N,10144.107,W,53.5,26.92,270515,,E*7B
$GPGGA,212126.387,5448.437,N,10144.107,W,0,00,,,M,,M,,*52
$GPGLL,5448.437,N,10144.107,W,212127.387,V*33
$GPRMC,212128.387,V,4534.649,N,15628.659,E,3.9,30.55,270515,,E*55
$GPGGA,212129.387,4534.649,N,15628.659,E,0,00,,,M,,M,,*4B
$GPGLL,4534.649,N,15628.659,E,212130.387,V*23
$GPRMC,212131.387,V,3321.270,N,16453.705,W,32.2,3.96,270515,,E*47
$GPGGA,212132.387,3321.270,N,16453.705,W,0,00,,,M,,M,,*5D
$GPGLL,3321.270,N,16453.705,W,212133.387,V*3C
$GPRMC,212134.387,V,0401.541,S,11012.910,W,32.5,3.80,270515,,E*50
$GPGGA,212135.387,0401.541,S,11012.910,W,0,00,,,M,,M,,*48
$GPGLL,0401.541,S,11012.910,W,212136.387,V*2B
$GPRMC,212137.387,V,5639.668,S,11800.232,W,38.7,39.68,270515,,E*60
$GPGGA,212138.387,5639.668,S,11800.232,W,0,00,,,M,,M,,*41
$GPGLL,5639.668,S,11800.232,W,212139.387,V*20
$GPRMC,212140.387,V,7523.967,N,06623.830,W,18.4,13.63,270515,,E*74
$GPGGA,212141.387,7523.967,N,06623.830,W,0,00,,,M,,M,,*59
$GPGLL,7523.967,N,06623.830,W,212142.387,V*3A
$GPRMC,212143.387,V,3719.938,N,15103.156,E,28.4,12.30,270515,,E*6A
$GPGGA,212144.387,3719.938,N,15103.156,E,0,00,,,M,,M,,*45
$GPGLL,3719.938,N,15103.156,E,212145.387,V*24
$GPRMC,212146.387,V,7347.224,S,11628.356,E,73.1,17.48,270515,,E*76
$GPGGA,212147.387,7347.224,S,11628.356,E,0,00,,,M,,M,,*5E
$GPGLL,7347.224,S,11628.356,E,212148.387,V*31
$GPRMC,212149.387,V,8950.170,S,03331.980,W,96.3,24.45,270515,,E*61
$GPGGA,212150.387,8950.170,S,03331.980,W,0,00,,,M,,M,,*44
$GPGLL,8950.170,S,03331.980,W,212151.387,V*25
$GPRMC,212152.387,V,3758.049,N,12021.231,W,99.1,44.93,270515,,E*73
$GPGGA,212153.387,3758.049,N,12021.231,W,0,00,,,M,,M,,*5F
$GPGLL,3758.049,N,12021.231,W,212154.387,V*38
$GPRMC,212155.387,V,1332.527,N,10002.620,E,56.9,17.38,270515,,E*6A
$GPGGA,212156.387,1332.527,N,10002.620,E,0,00,,,M,,M,,*48
$GPGLL,1332.527,N,10002.620,E,212157.387,V*29